{
  "director": {
    "unit": {
      "title": "Kierownik Przychodni",
      "name": ""
    },
    "title": "Dr n. med.",
    "name": "Wiesław Nowakowski",
    "img": "mocks/ceo.jpg"
  },
  "units": [
    {
      "index": "I",
      "name": "Poradnie i Gabinety Specjalistyczne dla Dorosłych i Dzieci",
      "doctors": [
        {
          "unit": {
            "title": "Choroby wewnętrzne",
            "name": "Kardiologia dorosłych"
          },
          "title": "Dr n. med.",
          "name": "Wiesław Nowakowski",
          "hours": [
            {"day": "tuesday", "hours": "15.30 - 17.00"},
            {"day": "wednesday", "hours": "15.30 - 17.00"},
            {"day": "thursday", "hours": "15.30 - 17.00"},
            {"day": "friday", "hours": "15.30 - 17.00"}
          ],
          "img": "mocks/ceo.jpg"
        },
        {
          "unit": {
            "title": "Kardiologia dziecięca",
            "name": "Pediatria"
          },
          "title": "Dr n. med.",
          "name": "Irena Nowakowska",
          "hours": [
            {"day": "tuesday", "hours": "15.00 - 17.00"},
            {"day": "wednesday", "hours": "15.00 - 17.00"},
            {"day": "thursday", "hours": "15.00 - 17.00"},
            {"day": "friday", "hours": "15.00 - 17.00"}
          ],
          "img": "mocks/doc_f.jpg"
        },
        {
          "unit": {
            "title": "Ginekologia i położnictwo"
          },
          "title": "Lek. med.",
          "name": "Zbigniew Placek",
          "hours": [
            {"day": "tuesday", "hours": "14.00 - 17.00"},
            {"day": "wednesday", "hours": "14.00 - 17.00"},
            {"day": "thursday", "hours": "14.00 - 17.00"}
          ],
          "img": "mocks/doc_m.jpg"
        }
      ]
    },
    {
      "index": "II",
      "name": "Badania Obrazowe Echokardiografia i ultrasonografia",
      "doctors": []
    },
    {
      "index": "III",
      "name": "Diagnostyka Kardiologiczna",
      "doctors": []
    },
    {
      "index": "IV",
      "name": "USG prenatalne i ginekologiczne",
      "doctors": []
    }
  ]
}